confirmados = '[{"type":"Feature","properties":{"confirmados":10,"name":"Florianópolis"},"geometry":{"type":"Point","coordinates":[-48.533481,-27.592007]}},{"type":"Feature","properties":{"confirmados":4,"name":"Joinville"},"geometry":{"type":"Point","coordinates":[-48.844265,-26.304108]}},{"type":"Feature","properties":{"confirmados":2,"name":"Rancho Queimado"},"geometry":{"type":"Point","coordinates":[-49.012654,-27.678477]}},{"type":"Feature","properties":{"confirmados":6,"name":"Braço do Norte"},"geometry":{"type":"Point","coordinates":[-49.157180,-28.279227]}},{"type":"Feature","properties":{"confirmados":6,"name":"Tubarão"},"geometry":{"type":"Point","coordinates":[-49.007760,-28.481031]}},{"type":"Feature","properties":{"confirmados":6,"name":"Balneário Camboriú"},"geometry":{"type":"Point","coordinates":[-48.637240,-26.996540]}},{"type":"Feature","properties":{"confirmados":1,"name":"SãoJosé"},"geometry":{"type":"Point","coordinates":[-48.642426,-27.614495]}},{"type":"Feature","properties":{"confirmados":2,"name":"Chapecó"},"geometry":{"type":"Point","coordinates":[-52.614408,-27.104724]}},{"type":"Feature","properties":{"confirmados":6,"name":"Criciúma"},"geometry":{"type":"Point","coordinates":[-49.369724,-28.677426]}},{"type":"Feature","properties":{"confirmados":2,"name":"Imbituba"},"geometry":{"type":"Point","coordinates":[-28.232783,-48.669809]}},{"type":"Feature","properties":{"confirmados":1,"name":"Itajaí"},"geometry":{"type":"Point","coordinates":[-48.672010,-26.906938]}},{"type":"Feature","properties":{"confirmados":1,"name":"Jaraguá do Sul"},"geometry":{"type":"Point","coordinates":[-49.080227,-26.485249]}},{"type":"Feature","properties":{"confirmados":1,"name":"Navegantes"},"geometry":{"type":"Point","coordinates":[-48.650213,-26.890267]}},{"type":"Feature","properties":{"confirmados":1,"name":"Pomerode"},"geometry":{"type":"Point","coordinates":[-49.176098,-26.738808]}},{"type":"Feature","properties":{"confirmados":2,"name":"Jaguaruna"},"geometry":{"type":"Point","coordinates":[-49.025004,-28.618890]}},{"type":"Feature","properties":{"confirmados":1,"name":"Gravatal"},"geometry":{"type":"Point","coordinates":[-49.066161,-28.327882]}}]';